{
"type": "FeatureCollection",
"name": "commSectPrinc",
"crs": { "type": "name", "properties": { "name": "urn:ogc:def:crs:OGC:1.3:CRS84" } },
"features": [
{ "type": "Feature", "properties": { "INSEE_COM": "43012", "NOM_COM": "AUREC-SUR-LOIRE", "STATUT": "Chef-lieu de canton", "CODE_DEPT": "43", "LIBGEO": "Aurec-sur-Loire", "CATAEU2010": "111", "VC": "non", "ZONAGE_COM": "2", "enquete": "SAINT ETIENNE" }, "geometry": { "type": "Point", "coordinates": [ 4.204383818318819, 45.368855421370007 ] } },
{ "type": "Feature", "properties": { "INSEE_COM": "42207", "NOM_COM": "SAINT-CHAMOND", "STATUT": "Chef-lieu de canton", "CODE_DEPT": "42", "LIBGEO": "Saint-Chamond", "CATAEU2010": "111", "VC": "non", "ZONAGE_COM": "2", "enquete": "SAINT ETIENNE" }, "geometry": { "type": "Point", "coordinates": [ 4.502080043124102, 45.470175152420147 ] } },
{ "type": "Feature", "properties": { "INSEE_COM": "42186", "NOM_COM": "RIVE-DE-GIER", "STATUT": "Chef-lieu de canton", "CODE_DEPT": "42", "LIBGEO": "Rive-de-Gier", "CATAEU2010": "111", "VC": "non", "ZONAGE_COM": "2", "enquete": "SAINT ETIENNE" }, "geometry": { "type": "Point", "coordinates": [ 4.610084564411262, 45.52220527544462 ] } },
{ "type": "Feature", "properties": { "INSEE_COM": "43224", "NOM_COM": "SAINTE-SIGOLENE", "STATUT": "Chef-lieu de canton", "CODE_DEPT": "43", "LIBGEO": "Sainte-Sigolène", "CATAEU2010": "221", "VC": "non", "ZONAGE_COM": "2", "enquete": "SAINT ETIENNE" }, "geometry": { "type": "Point", "coordinates": [ 4.228874104332687, 45.246817606720491 ] } },
{ "type": "Feature", "properties": { "INSEE_COM": "42279", "NOM_COM": "SAINT-JUST-SAINT-RAMBERT", "STATUT": "Chef-lieu de canton", "CODE_DEPT": "42", "LIBGEO": "Saint-Just-Saint-Rambert", "CATAEU2010": "112", "VC": "non", "ZONAGE_COM": "1", "enquete": "SAINT ETIENNE" }, "geometry": { "type": "Point", "coordinates": [ 4.250507570363772, 45.490343706454276 ] } },
{ "type": "Feature", "properties": { "INSEE_COM": "42005", "NOM_COM": "ANDREZIEUX-BOUTHEON", "STATUT": "Chef-lieu de canton", "CODE_DEPT": "42", "LIBGEO": "Andrézieux-Bouthéon", "CATAEU2010": "112", "VC": "non", "ZONAGE_COM": "1", "enquete": "SAINT ETIENNE" }, "geometry": { "type": "Point", "coordinates": [ 4.277048540642224, 45.534973802848512 ] } },
{ "type": "Feature", "properties": { "INSEE_COM": "42095", "NOM_COM": "FIRMINY", "STATUT": "Chef-lieu de canton", "CODE_DEPT": "42", "LIBGEO": "Firminy", "CATAEU2010": "111", "VC": "non", "ZONAGE_COM": "2", "enquete": "SAINT ETIENNE" }, "geometry": { "type": "Point", "coordinates": [ 4.288729679461796, 45.378934572598894 ] } },
{ "type": "Feature", "properties": { "INSEE_COM": "43137", "NOM_COM": "MONISTROL-SUR-LOIRE", "STATUT": "Chef-lieu de canton", "CODE_DEPT": "43", "LIBGEO": "Monistrol-sur-Loire", "CATAEU2010": "120", "VC": "non", "ZONAGE_COM": "1", "enquete": "SAINT ETIENNE" }, "geometry": { "type": "Point", "coordinates": [ 4.183788410335441, 45.290556966935547 ] } },
{ "type": "Feature", "properties": { "INSEE_COM": "42302", "NOM_COM": "SORBIERS", "STATUT": "Chef-lieu de canton", "CODE_DEPT": "42", "LIBGEO": "Sorbiers", "CATAEU2010": "111", "VC": "non", "ZONAGE_COM": "2", "enquete": "SAINT ETIENNE" }, "geometry": { "type": "Point", "coordinates": [ 4.437856140427717, 45.499201503384633 ] } },
{ "type": "Feature", "properties": { "INSEE_COM": "42147", "NOM_COM": "MONTBRISON", "STATUT": "Sous-préfecture", "CODE_DEPT": "42", "LIBGEO": "Montbrison", "CATAEU2010": "111", "VC": "non", "ZONAGE_COM": "2", "enquete": "SAINT ETIENNE" }, "geometry": { "type": "Point", "coordinates": [ 4.07153068533539, 45.600856415139212 ] } },
{ "type": "Feature", "properties": { "INSEE_COM": "43244", "NOM_COM": "TENCE", "STATUT": "Chef-lieu de canton", "CODE_DEPT": "43", "LIBGEO": "Tence", "CATAEU2010": "400", "VC": "non", "ZONAGE_COM": "1", "enquete": "SAINT ETIENNE" }, "geometry": { "type": "Point", "coordinates": [ 4.300166551836351, 45.113824109324881 ] } },
{ "type": "Feature", "properties": { "INSEE_COM": "43020", "NOM_COM": "BAS-EN-BASSET", "STATUT": "Chef-lieu de canton", "CODE_DEPT": "43", "LIBGEO": "Bas-en-Basset", "CATAEU2010": "120", "VC": "non", "ZONAGE_COM": "1", "enquete": "SAINT ETIENNE" }, "geometry": { "type": "Point", "coordinates": [ 4.104768217045925, 45.315924844704853 ] } },
{ "type": "Feature", "properties": { "INSEE_COM": "43051", "NOM_COM": "LE CHAMBON-SUR-LIGNON", "STATUT": "Chef-lieu de canton", "CODE_DEPT": "43", "LIBGEO": "Le Chambon-sur-Lignon", "CATAEU2010": "400", "VC": "non", "ZONAGE_COM": "1", "enquete": "SAINT ETIENNE" }, "geometry": { "type": "Point", "coordinates": [ 4.319850054684147, 45.053120132798909 ] } },
{ "type": "Feature", "properties": { "INSEE_COM": "43268", "NOM_COM": "YSSINGEAUX", "STATUT": "Sous-préfecture", "CODE_DEPT": "43", "LIBGEO": "Yssingeaux", "CATAEU2010": "221", "VC": "non", "ZONAGE_COM": "2", "enquete": "SAINT ETIENNE" }, "geometry": { "type": "Point", "coordinates": [ 4.131065512329926, 45.139462539830959 ] } }
]
}
