{
"type": "FeatureCollection",
"name": "commSectPrinc",
"crs": { "type": "name", "properties": { "name": "urn:ogc:def:crs:OGC:1.3:CRS84" } },
"features": [
{ "type": "Feature", "properties": { "INSEE_COM": "34157", "NOM_COM": "MEZE", "STATUT": "Chef-lieu de canton", "CODE_DEPT": "34", "LIBGEO": "Mèze", "CATAEU2010": "120", "VC": "non", "ZONAGE_COM": "1", "enquete": "MONTPELLIER" }, "geometry": { "type": "Point", "coordinates": [ 3.578322000773687, 43.429208729133443 ] } },
{ "type": "Feature", "properties": { "INSEE_COM": "34154", "NOM_COM": "MAUGUIO", "STATUT": "Chef-lieu de canton", "CODE_DEPT": "34", "LIBGEO": "Mauguio", "CATAEU2010": "112", "VC": "non", "ZONAGE_COM": "1", "enquete": "MONTPELLIER" }, "geometry": { "type": "Point", "coordinates": [ 4.004631494990985, 43.593075423029397 ] } },
{ "type": "Feature", "properties": { "INSEE_COM": "34255", "NOM_COM": "SAINT-GELY-DU-FESC", "STATUT": "Chef-lieu de canton", "CODE_DEPT": "34", "LIBGEO": "Saint-Gély-du-Fesc", "CATAEU2010": "111", "VC": "non", "ZONAGE_COM": "2", "enquete": "MONTPELLIER" }, "geometry": { "type": "Point", "coordinates": [ 3.810067996031733, 43.689005893029389 ] } },
{ "type": "Feature", "properties": { "INSEE_COM": "34301", "NOM_COM": "SETE", "STATUT": "Chef-lieu de canton", "CODE_DEPT": "34", "LIBGEO": "Sète", "CATAEU2010": "111", "VC": "non", "ZONAGE_COM": "2", "enquete": "MONTPELLIER" }, "geometry": { "type": "Point", "coordinates": [ 3.646589849627799, 43.391798593132499 ] } },
{ "type": "Feature", "properties": { "INSEE_COM": "34145", "NOM_COM": "LUNEL", "STATUT": "Chef-lieu de canton", "CODE_DEPT": "34", "LIBGEO": "Lunel", "CATAEU2010": "111", "VC": "non", "ZONAGE_COM": "2", "enquete": "MONTPELLIER" }, "geometry": { "type": "Point", "coordinates": [ 4.136039552126697, 43.682058795943853 ] } },
{ "type": "Feature", "properties": { "INSEE_COM": "34114", "NOM_COM": "GIGNAC", "STATUT": "Chef-lieu de canton", "CODE_DEPT": "34", "LIBGEO": "Gignac", "CATAEU2010": "112", "VC": "non", "ZONAGE_COM": "1", "enquete": "MONTPELLIER" }, "geometry": { "type": "Point", "coordinates": [ 3.573620013220901, 43.639476799961642 ] } },
{ "type": "Feature", "properties": { "INSEE_COM": "34079", "NOM_COM": "CLERMONT-L'HERAULT", "STATUT": "Chef-lieu de canton", "CODE_DEPT": "34", "LIBGEO": "Clermont-l'Hérault", "CATAEU2010": "221", "VC": "non", "ZONAGE_COM": "2", "enquete": "MONTPELLIER" }, "geometry": { "type": "Point", "coordinates": [ 3.41280011895878, 43.634028292759595 ] } },
{ "type": "Feature", "properties": { "INSEE_COM": "34108", "NOM_COM": "FRONTIGNAN", "STATUT": "Chef-lieu de canton", "CODE_DEPT": "34", "LIBGEO": "Frontignan", "CATAEU2010": "111", "VC": "non", "ZONAGE_COM": "2", "enquete": "MONTPELLIER" }, "geometry": { "type": "Point", "coordinates": [ 3.749331116191061, 43.448134342206046 ] } },
{ "type": "Feature", "properties": { "INSEE_COM": "34142", "NOM_COM": "LODEVE", "STATUT": "Sous-préfecture", "CODE_DEPT": "34", "LIBGEO": "Lodève", "CATAEU2010": "221", "VC": "non", "ZONAGE_COM": "2", "enquete": "MONTPELLIER" }, "geometry": { "type": "Point", "coordinates": [ 3.305352941346385, 43.730763080323435 ] } },
{ "type": "Feature", "properties": { "INSEE_COM": "34090", "NOM_COM": "LE CRES", "STATUT": "Chef-lieu de canton", "CODE_DEPT": "34", "LIBGEO": "Le Crès", "CATAEU2010": "111", "VC": "non", "ZONAGE_COM": "2", "enquete": "MONTPELLIER" }, "geometry": { "type": "Point", "coordinates": [ 3.936713087831369, 43.652710177503323 ] } },
{ "type": "Feature", "properties": { "INSEE_COM": "34129", "NOM_COM": "LATTES", "STATUT": "Chef-lieu de canton", "CODE_DEPT": "34", "LIBGEO": "Lattes", "CATAEU2010": "111", "VC": "non", "ZONAGE_COM": "2", "enquete": "MONTPELLIER" }, "geometry": { "type": "Point", "coordinates": [ 3.902485430937113, 43.563528090451278 ] } },
{ "type": "Feature", "properties": { "INSEE_COM": "34202", "NOM_COM": "PIGNAN", "STATUT": "Chef-lieu de canton", "CODE_DEPT": "34", "LIBGEO": "Pignan", "CATAEU2010": "112", "VC": "non", "ZONAGE_COM": "1", "enquete": "MONTPELLIER" }, "geometry": { "type": "Point", "coordinates": [ 3.749497770709524, 43.585730659835185 ] } }
]
}
